{"pwani": {"lat": -7.17553, "lng": 38.93912, "name": "Pwani"}, "simiyu": {"lat": -3.12843, "lng": 34.1862, "name": "Simiyu"}, "geita": {"lat": -3.38395, "lng": 31.73495, "name": "Geita"}, "singida": {"lat": -5.6613, "lng": 34.69974, "name": "Singida"}, "iringa": {"lat": -7.95595, "lng": 35.79467, "name": "Iringa"}, "rukwa": {"lat": -7.95944, "lng": 31.29799, "name": "Rukwa"}, "kagera": {"lat": -2.17497, "lng": 31.27491, "name": "Kagera"}, "kigoma": {"lat": -4.83768, "lng": 30.38054, "name": "Kigoma"}, "lindi": {"lat": -9.34533, "lng": 38.47683, "name": "Lindi"}, "dar es salaam": {"lat": -6.87392, "lng": 39.18956, "name": "Dar es salaam"}, "dodoma": {"lat": -5.84996, "lng": 35.95492, "name": "Dodoma"}, "tanga": {"lat": -5.06613, "lng": 38.27716, "name": "Tanga"}, "mtwara": {"lat": -10.77691, "lng": 39.04128, "name": "Mtwara"}, "njombe": {"lat": -9.59451, "lng": 34.67195, "name": "Njombe"}, "tabora": {"lat": -5.4325, "lng": 32.68789, "name": "Tabora"}, "kilimanjaro": {"lat": -3.71585, "lng": 37.66286, "name": "Kilimanjaro"}, "shinyanga": {"lat": -3.75926, "lng": 33.22906, "name": "Shinyanga"}, "mara": {"lat": -1.76479, "lng": 34.4515, "name": "Mara"}, "ruvuma": {"lat": -10.5009, "lng": 36.1778, "name": "Ruvuma"}, "mwanza": {"lat": -2.90759, "lng": 33.16266, "name": "Mwanza"}, "mbeya": {"lat": -8.3053, "lng": 33.9793, "name": "Mbeya"}, "arusha": {"lat": -2.91646, "lng": 36.09877, "name": "Arusha"}, "morogoro": {"lat": -7.86305, "lng": 37.31035, "name": "Morogoro"}, "katavi": {"lat": -6.44967, "lng": 31.51061, "name": "Katavi"}, "manyara": {"lat": -4.70177, "lng": 37.14645, "name": "Manyara"}, "kusini pemba": {"lat": -5.3038, "lng": 39.74563, "name": "Kusini Pemba"}, "kaskazini unguja": {"lat": -5.88012, "lng": 39.30371, "name": "Kaskazini Unguja"}, "kusini unguja": {"lat": -6.23929, "lng": 39.42699, "name": "Kusini Unguja"}, "mjini magharibi": {"lat": -6.17725, "lng": 39.23668, "name": "Mjini Magharibi"}, "kaskazini pemba": {"lat": -5.03941, "lng": 39.75864, "name": "Kaskazini Pemba"}, "songwe": {"lat": -8.2776, "lng": 32.69372, "name": "Songwe"}}